$GPGGA,035653.00,4307.5613,N,14114.6470,E,1,00,0.0,-0.2,M,0.0,M,,*70
$GPRMC,035653.00,A,4307.5613,N,14114.6470,E,7.0,000.0,300514,,,A*59
$GPGGA,035658.00,4307.5545,N,14114.6469,E,1,00,0.0,-1.3,M,0.0,M,,*73
$GPRMC,035658.00,A,4307.5545,N,14114.6469,E,7.0,000.0,300514,,,A*5A
$GPGGA,035703.00,4307.5465,N,14114.6486,E,1,00,0.0,-0.2,M,0.0,M,,*7E
$GPRMC,035703.00,A,4307.5465,N,14114.6486,E,8.0,000.0,300514,,,A*58
$GPGGA,035708.00,4307.4918,N,14114.6703,E,1,00,0.0,27.4,M,0.0,M,,*63
$GPRMC,035708.00,A,4307.4918,N,14114.6703,E,5.0,000.0,300514,,,A*56
$GPGGA,035713.00,4307.4880,N,14114.6683,E,1,00,0.0,29.1,M,0.0,M,,*6B
$GPRMC,035713.00,A,4307.4880,N,14114.6683,E,5.0,000.0,300514,,,A*55
$GPGGA,035718.00,4307.4835,N,14114.6670,E,1,00,0.0,33.7,M,0.0,M,,*6F
$GPRMC,035718.00,A,4307.4835,N,14114.6670,E,6.0,000.0,300514,,,A*5F
$GPGGA,035723.00,4307.4806,N,14114.6654,E,1,00,0.0,38.0,M,0.0,M,,*6D
$GPRMC,035723.00,A,4307.4806,N,14114.6654,E,5.0,000.0,300514,,,A*52
$GPGGA,035728.00,4307.4742,N,14114.6636,E,1,00,0.0,40.3,M,0.0,M,,*61
$GPRMC,035728.00,A,4307.4742,N,14114.6636,E,6.0,000.0,300514,,,A*51
$GPGGA,035733.00,4307.4698,N,14114.6610,E,1,00,0.0,41.8,M,0.0,M,,*63
$GPRMC,035733.00,A,4307.4698,N,14114.6610,E,6.0,000.0,300514,,,A*59
$GPGGA,035738.00,4307.4647,N,14114.6577,E,1,00,0.0,43.0,M,0.0,M,,*62
$GPRMC,035738.00,A,4307.4647,N,14114.6577,E,6.0,000.0,300514,,,A*52
$GPGGA,035743.00,4307.4605,N,14114.6557,E,1,00,0.0,44.1,M,0.0,M,,*6C
$GPRMC,035743.00,A,4307.4605,N,14114.6557,E,6.0,000.0,300514,,,A*5A
$GPGGA,035748.00,4307.4569,N,14114.6538,E,1,00,0.0,42.4,M,0.0,M,,*64
$GPRMC,035748.00,A,4307.4569,N,14114.6538,E,5.0,000.0,300514,,,A*52
$GPGGA,035753.00,4307.4520,N,14114.6510,E,1,00,0.0,44.9,M,0.0,M,,*62
$GPRMC,035753.00,A,4307.4520,N,14114.6510,E,6.0,000.0,300514,,,A*5C
$GPGGA,035758.00,4307.4476,N,14114.6475,E,1,00,0.0,44.5,M,0.0,M,,*65
$GPRMC,035758.00,A,4307.4476,N,14114.6475,E,5.0,000.0,300514,,,A*54
$GPGGA,035803.00,4307.4446,N,14114.6432,E,1,00,0.0,49.1,M,0.0,M,,*6D
$GPRMC,035803.00,A,4307.4446,N,14114.6432,E,5.0,000.0,300514,,,A*55
$GPGGA,035808.00,4307.4376,N,14114.6331,E,1,00,0.0,66.0,M,0.0,M,,*6A
$GPRMC,035808.00,A,4307.4376,N,14114.6331,E,4.0,000.0,300514,,,A*5F
$GPGGA,035813.00,4307.4344,N,14114.6302,E,1,00,0.0,64.9,M,0.0,M,,*6A
$GPRMC,035813.00,A,4307.4344,N,14114.6302,E,4.0,000.0,300514,,,A*54
$GPGGA,035818.00,4307.4322,N,14114.6297,E,1,00,0.0,61.9,M,0.0,M,,*69
$GPRMC,035818.00,A,4307.4322,N,14114.6297,E,3.0,000.0,300514,,,A*55
$GPGGA,035823.00,4307.4293,N,14114.6273,E,1,00,0.0,51.5,M,0.0,M,,*6F
$GPRMC,035823.00,A,4307.4293,N,14114.6273,E,3.0,000.0,300514,,,A*5C
$GPGGA,035828.00,4307.4266,N,14114.6245,E,1,00,0.0,51.1,M,0.0,M,,*6F
$GPRMC,035828.00,A,4307.4266,N,14114.6245,E,3.0,000.0,300514,,,A*58
$GPGGA,035833.00,4307.4235,N,14114.6257,E,1,00,0.0,44.0,M,0.0,M,,*65
$GPRMC,035833.00,A,4307.4235,N,14114.6257,E,3.0,000.0,300514,,,A*57
$GPGGA,035838.00,4307.4190,N,14114.6237,E,1,00,0.0,42.7,M,0.0,M,,*65
$GPRMC,035838.00,A,4307.4190,N,14114.6237,E,3.0,000.0,300514,,,A*56
$GPGGA,035843.00,4307.4171,N,14114.6248,E,1,00,0.0,37.7,M,0.0,M,,*6C
$GPRMC,035843.00,A,4307.4171,N,14114.6248,E,0.0,000.0,300514,,,A*5E
$GPGGA,035848.00,4307.4132,N,14114.6270,E,1,00,0.0,38.1,M,0.0,M,,*62
$GPRMC,035848.00,A,4307.4132,N,14114.6270,E,4.0,000.0,300514,,,A*5D
$GPGGA,035853.00,4307.4106,N,14114.6243,E,1,00,0.0,35.9,M,0.0,M,,*6A
$GPRMC,035853.00,A,4307.4106,N,14114.6243,E,4.0,000.0,300514,,,A*50
$GPGGA,035858.00,4307.4074,N,14114.6203,E,1,00,0.0,36.4,M,0.0,M,,*6F
$GPRMC,035858.00,A,4307.4074,N,14114.6203,E,4.0,000.0,300514,,,A*5B
$GPGGA,035903.00,4307.4059,N,14114.6138,E,1,00,0.0,36.4,M,0.0,M,,*64
$GPRMC,035903.00,A,4307.4059,N,14114.6138,E,5.0,000.0,300514,,,A*51
$GPGGA,035908.00,4307.4002,N,14114.6115,E,1,00,0.0,38.8,M,0.0,M,,*6C
$GPRMC,035908.00,A,4307.4002,N,14114.6115,E,5.0,000.0,300514,,,A*5B
$GPGGA,035913.00,4307.3974,N,14114.6060,E,1,00,0.0,38.6,M,0.0,M,,*64
$GPRMC,035913.00,A,4307.3974,N,14114.6060,E,5.0,000.0,300514,,,A*5D
$GPGGA,035918.00,4307.3954,N,14114.6006,E,1,00,0.0,38.0,M,0.0,M,,*6B
$GPRMC,035918.00,A,4307.3954,N,14114.6006,E,4.0,000.0,300514,,,A*55
$GPGGA,035923.00,4307.3911,N,14114.5959,E,1,00,0.0,39.3,M,0.0,M,,*60
$GPRMC,035923.00,A,4307.3911,N,14114.5959,E,4.0,000.0,300514,,,A*5C
$GPGGA,035928.00,4307.3879,N,14114.5918,E,1,00,0.0,39.8,M,0.0,M,,*6A
$GPRMC,035928.00,A,4307.3879,N,14114.5918,E,5.0,000.0,300514,,,A*5C
$GPGGA,035933.00,4307.3825,N,14114.5933,E,1,00,0.0,40.3,M,0.0,M,,*65
$GPRMC,035933.00,A,4307.3825,N,14114.5933,E,5.0,000.0,300514,,,A*56
$GPGGA,035938.00,4307.3773,N,14114.5941,E,1,00,0.0,37.4,M,0.0,M,,*60
$GPRMC,035938.00,A,4307.3773,N,14114.5941,E,6.0,000.0,300514,,,A*57
$GPGGA,035943.00,4307.3723,N,14114.5945,E,1,00,0.0,38.5,M,0.0,M,,*63
$GPRMC,035943.00,A,4307.3723,N,14114.5945,E,6.0,000.0,300514,,,A*5A
$GPGGA,035948.00,4307.3668,N,14114.5913,E,1,00,0.0,47.9,M,0.0,M,,*61
$GPRMC,035948.00,A,4307.3668,N,14114.5913,E,5.0,000.0,300514,,,A*5F
$GPGGA,035953.00,4307.3616,N,14114.5887,E,1,00,0.0,56.8,M,0.0,M,,*6F
$GPRMC,035953.00,A,4307.3616,N,14114.5887,E,5.0,000.0,300514,,,A*50
$GPGGA,035958.00,4307.3586,N,14114.5961,E,1,00,0.0,49.4,M,0.0,M,,*65
$GPRMC,035958.00,A,4307.3586,N,14114.5961,E,4.0,000.0,300514,,,A*59
$GPGGA,040003.00,4307.3585,N,14114.5989,E,1,00,0.0,55.5,M,0.0,M,,*69
$GPRMC,040003.00,A,4307.3585,N,14114.5989,E,3.0,000.0,300514,,,A*5E
$GPGGA,040029.00,4307.3436,N,14114.6107,E,1,00,0.0,61.4,M,0.0,M,,*63
$GPRMC,040029.00,A,4307.3436,N,14114.6107,E,4.0,000.0,300514,,,A*55
$GPGGA,040034.00,4307.3324,N,14114.6243,E,1,00,0.0,60.3,M,0.0,M,,*6E
$GPRMC,040034.00,A,4307.3324,N,14114.6243,E,4.0,000.0,300514,,,A*5E
$GPGGA,040039.00,4307.3276,N,14114.6298,E,1,00,0.0,58.0,M,0.0,M,,*6B
$GPRMC,040039.00,A,4307.3276,N,14114.6298,E,3.0,000.0,300514,,,A*54
$GPGGA,040044.00,4307.3270,N,14114.6313,E,1,00,0.0,56.3,M,0.0,M,,*68
$GPRMC,040044.00,A,4307.3270,N,14114.6313,E,1.0,000.0,300514,,,A*58
$GPGGA,040049.00,4307.3280,N,14114.6333,E,1,00,0.0,60.2,M,0.0,M,,*6C
$GPRMC,040049.00,A,4307.3280,N,14114.6333,E,0.0,000.0,300514,,,A*59
$GPGGA,040102.00,4307.3234,N,14114.6359,E,1,00,0.0,60.6,M,0.0,M,,*65
$GPRMC,040102.00,A,4307.3234,N,14114.6359,E,5.0,000.0,300514,,,A*51
$GPGGA,040107.00,4307.3157,N,14114.6416,E,1,00,0.0,58.2,M,0.0,M,,*65
$GPRMC,040107.00,A,4307.3157,N,14114.6416,E,5.0,000.0,300514,,,A*5E
$GPGGA,040112.00,4307.3054,N,14114.6467,E,1,00,0.0,60.9,M,0.0,M,,*65
$GPRMC,040112.00,A,4307.3054,N,14114.6467,E,4.0,000.0,300514,,,A*5F
$GPGGA,040117.00,4307.3010,N,14114.6469,E,1,00,0.0,58.1,M,0.0,M,,*6D
$GPRMC,040117.00,A,4307.3010,N,14114.6469,E,3.0,000.0,300514,,,A*53
$GPGGA,040122.00,4307.2963,N,14114.6459,E,1,00,0.0,58.5,M,0.0,M,,*60
$GPRMC,040122.00,A,4307.2963,N,14114.6459,E,4.0,000.0,300514,,,A*5D
$GPGGA,040127.00,4307.2956,N,14114.6401,E,1,00,0.0,57.1,M,0.0,M,,*65
$GPRMC,040127.00,A,4307.2956,N,14114.6401,E,3.0,000.0,300514,,,A*54
$GPGGA,040132.00,4307.2948,N,14114.6344,E,1,00,0.0,55.6,M,0.0,M,,*6D
$GPRMC,040132.00,A,4307.2948,N,14114.6344,E,3.0,000.0,300514,,,A*59
$GPGGA,040137.00,4307.2912,N,14114.6307,E,1,00,0.0,58.3,M,0.0,M,,*68
$GPRMC,040137.00,A,4307.2912,N,14114.6307,E,3.0,000.0,300514,,,A*54
$GPGGA,040142.00,4307.2872,N,14114.6267,E,1,00,0.0,57.4,M,0.0,M,,*62
$GPRMC,040142.00,A,4307.2872,N,14114.6267,E,4.0,000.0,300514,,,A*51
$GPGGA,040147.00,4307.2839,N,14114.6222,E,1,00,0.0,47.9,M,0.0,M,,*65
$GPRMC,040147.00,A,4307.2839,N,14114.6222,E,5.0,000.0,300514,,,A*5B
$GPGGA,040152.00,4307.2803,N,14114.6214,E,1,00,0.0,46.3,M,0.0,M,,*66
$GPRMC,040152.00,A,4307.2803,N,14114.6214,E,4.0,000.0,300514,,,A*52
$GPGGA,040157.00,4307.2750,N,14114.6208,E,1,00,0.0,46.6,M,0.0,M,,*62
$GPRMC,040157.00,A,4307.2750,N,14114.6208,E,5.0,000.0,300514,,,A*52
$GPGGA,040202.00,4307.2708,N,14114.6231,E,1,00,0.0,44.7,M,0.0,M,,*65
$GPRMC,040202.00,A,4307.2708,N,14114.6231,E,6.0,000.0,300514,,,A*55
$GPGGA,040207.00,4307.2676,N,14114.6260,E,1,00,0.0,43.7,M,0.0,M,,*6B
$GPRMC,040207.00,A,4307.2676,N,14114.6260,E,4.0,000.0,300514,,,A*5E
$GPGGA,040212.00,4307.2631,N,14114.6281,E,1,00,0.0,45.1,M,0.0,M,,*63
$GPRMC,040212.00,A,4307.2631,N,14114.6281,E,4.0,000.0,300514,,,A*56
$GPGGA,040217.00,4307.2602,N,14114.6293,E,1,00,0.0,45.1,M,0.0,M,,*65
$GPRMC,040217.00,A,4307.2602,N,14114.6293,E,5.0,000.0,300514,,,A*51
$GPGGA,040222.00,4307.2569,N,14114.6326,E,1,00,0.0,47.1,M,0.0,M,,*60
$GPRMC,040222.00,A,4307.2569,N,14114.6326,E,5.0,000.0,300514,,,A*56
$GPGGA,040227.00,4307.2534,N,14114.6343,E,1,00,0.0,47.0,M,0.0,M,,*6F
$GPRMC,040227.00,A,4307.2534,N,14114.6343,E,5.0,000.0,300514,,,A*58
$GPGGA,040232.00,4307.2490,N,14114.6365,E,1,00,0.0,46.7,M,0.0,M,,*66
$GPRMC,040232.00,A,4307.2490,N,14114.6365,E,5.0,000.0,300514,,,A*57
$GPGGA,040237.00,4307.2460,N,14114.6395,E,1,00,0.0,44.0,M,0.0,M,,*66
$GPRMC,040237.00,A,4307.2460,N,14114.6395,E,4.0,000.0,300514,,,A*53
$GPGGA,040242.00,4307.2458,N,14114.6404,E,1,00,0.0,37.0,M,0.0,M,,*64
$GPRMC,040242.00,A,4307.2458,N,14114.6404,E,0.0,000.0,300514,,,A*51
$GPGGA,040247.00,4307.2448,N,14114.6417,E,1,00,0.0,31.7,M,0.0,M,,*63
$GPRMC,040247.00,A,4307.2448,N,14114.6417,E,3.0,000.0,300514,,,A*54
$GPGGA,040252.00,4307.2379,N,14114.6419,E,1,00,0.0,33.5,M,0.0,M,,*6C
$GPRMC,040252.00,A,4307.2379,N,14114.6419,E,5.0,000.0,300514,,,A*5D
$GPGGA,040257.00,4307.2335,N,14114.6389,E,1,00,0.0,40.8,M,0.0,M,,*66
$GPRMC,040257.00,A,4307.2335,N,14114.6389,E,3.0,000.0,300514,,,A*58
$GPGGA,040302.00,4307.2308,N,14114.6347,E,1,00,0.0,46.1,M,0.0,M,,*64
$GPRMC,040302.00,A,4307.2308,N,14114.6347,E,4.0,000.0,300514,,,A*52
$GPGGA,040307.00,4307.2306,N,14114.6338,E,1,00,0.0,52.3,M,0.0,M,,*60
$GPRMC,040307.00,A,4307.2306,N,14114.6338,E,3.0,000.0,300514,,,A*56
$GPGGA,040312.00,4307.2331,N,14114.6332,E,1,00,0.0,57.6,M,0.0,M,,*6A
$GPRMC,040312.00,A,4307.2331,N,14114.6332,E,1.0,000.0,300514,,,A*5E
$GPGGA,040317.00,4307.2317,N,14114.6333,E,1,00,0.0,53.1,M,0.0,M,,*69
$GPRMC,040317.00,A,4307.2317,N,14114.6333,E,3.0,000.0,300514,,,A*5C
$GPGGA,040322.00,4307.2318,N,14114.6330,E,1,00,0.0,50.2,M,0.0,M,,*63
$GPRMC,040322.00,A,4307.2318,N,14114.6330,E,0.0,000.0,300514,,,A*55
$GPGGA,040327.00,4307.2299,N,14114.6343,E,1,00,0.0,52.2,M,0.0,M,,*68
$GPRMC,040327.00,A,4307.2299,N,14114.6343,E,1.0,000.0,300514,,,A*5D
$GPGGA,040332.00,4307.2259,N,14114.6360,E,1,00,0.0,51.4,M,0.0,M,,*64
$GPRMC,040332.00,A,4307.2259,N,14114.6360,E,2.0,000.0,300514,,,A*57
$GPGGA,040337.00,4307.2195,N,14114.6384,E,1,00,0.0,52.4,M,0.0,M,,*6B
$GPRMC,040337.00,A,4307.2195,N,14114.6384,E,1.0,000.0,300514,,,A*58
$GPGGA,040342.00,4307.2147,N,14114.6410,E,1,00,0.0,54.5,M,0.0,M,,*6B
$GPRMC,040342.00,A,4307.2147,N,14114.6410,E,0.0,000.0,300514,,,A*5E
$GPGGA,040347.00,4307.2135,N,14114.6413,E,1,00,0.0,55.4,M,0.0,M,,*68
$GPRMC,040347.00,A,4307.2135,N,14114.6413,E,0.0,000.0,300514,,,A*5D
$GPGGA,040352.00,4307.2129,N,14114.6418,E,1,00,0.0,55.3,M,0.0,M,,*6D
$GPRMC,040352.00,A,4307.2129,N,14114.6418,E,0.0,000.0,300514,,,A*5F
$GPGGA,040358.00,4307.2146,N,14114.6358,E,1,00,0.0,53.2,M,0.0,M,,*6A
$GPRMC,040358.00,A,4307.2146,N,14114.6358,E,5.0,000.0,300514,,,A*5A
$GPGGA,040403.00,4307.2154,N,14114.6336,E,1,00,0.0,56.1,M,0.0,M,,*6E
$GPRMC,040403.00,A,4307.2154,N,14114.6336,E,2.0,000.0,300514,,,A*5F
$GPGGA,040408.00,4307.2127,N,14114.6329,E,1,00,0.0,54.2,M,0.0,M,,*6E
$GPRMC,040408.00,A,4307.2127,N,14114.6329,E,0.0,000.0,300514,,,A*5C
$GPGGA,040413.00,4307.2132,N,14114.6312,E,1,00,0.0,57.6,M,0.0,M,,*6F
$GPRMC,040413.00,A,4307.2132,N,14114.6312,E,0.0,000.0,300514,,,A*5A
$GPGGA,040418.00,4307.2140,N,14114.6286,E,1,00,0.0,57.5,M,0.0,M,,*6E
$GPRMC,040418.00,A,4307.2140,N,14114.6286,E,0.0,000.0,300514,,,A*58
$GPGGA,040423.00,4307.2181,N,14114.6208,E,1,00,0.0,55.2,M,0.0,M,,*68
$GPRMC,040423.00,A,4307.2181,N,14114.6208,E,2.0,000.0,300514,,,A*59
$GPGGA,040428.00,4307.2191,N,14114.6178,E,1,00,0.0,54.5,M,0.0,M,,*60
$GPRMC,040428.00,A,4307.2191,N,14114.6178,E,0.0,000.0,300514,,,A*55
$GPGGA,040433.00,4307.2200,N,14114.6164,E,1,00,0.0,52.8,M,0.0,M,,*67
$GPRMC,040433.00,A,4307.2200,N,14114.6164,E,0.0,000.0,300514,,,A*59
$GPGGA,040438.00,4307.2217,N,14114.6140,E,1,00,0.0,52.4,M,0.0,M,,*60
$GPRMC,040438.00,A,4307.2217,N,14114.6140,E,0.0,000.0,300514,,,A*52
$GPGGA,040443.00,4307.2231,N,14114.6131,E,1,00,0.0,52.6,