$GPGGA,035653.00,4307.5613,N,14114.6470,E,1,00,0.0,-0.2,M,0.0,M,,*70
$GPRMC,035653.00,A,4307.5613,N,14114.6470,E,7.0,000.0,300514,,,A*59
$GPGGA,035658.00,4307.5545,N,14114.6469,E,1,00,0.0,-1.3,M,0.0,M,,*73
$GPRMC,035658.00,A,4307.5545,N,14114.6469,E,7.0,000.0,300514,,,A*5A
$GPGGA,035703.00,4307.5465,N,14114.6486,E,1,00,0.0,-0.2,M,0.0,M,,*7E
$GPRMC,035703.00,A,4307.5465,N,14114.6486,E,8.0,000.0,300514,,,A*58
$GPGGA,035708.00,4307.4918,N,14114.6703,E,1,00,0.0,27.4,M,0.0,M,,*63
$GPRMC,035708.00,A,4307.4918,N,14114.6703,E,5.0,000.0,300514,,,A*56
$GPGGA,035713.00,4307.4880,N,14114.6683,E,1,00,0.0,29.1,M,0.0,M,,*6B
$GPRMC,035713.00,A,4307.4880,N,14114.6683,E,5.0,000.0,300514,,,A*55
$GPGGA,035718.00,4307.4835,N,14114.6670,E,1,00,0.0,33.7,M,0.0,M,,*6F
$GPRMC,035718.00,A,4307.4835,N,14114.6670,E,6.0,000.0,300514,,,A*5F
$GPGGA,035723.00,4307.4806,N,14114.6654,E,1,00,0.0,38.0,M,0.0,M,,*6D
$GPRMC,035723.00,A,4307.4806,N,14114.6654,E,5.0,000.0,300514,,,A*52
$GPGGA,035728.00,4307.4742,N,14114.6636,E,1,00,0.0,40.3,M,0.0,M,,*61
$GPRMC,035728.00,A,4307.4742,N,14114.6636,E,6.0,000.0,300514,,,A*51
$GPGGA,035733.00,4307.4698,N,14114.6610,E,1,00,0.0,41.8,M,0.0,M,,*63
$GPRMC,035733.00,A,4307.4698,N,14114.6610,E,6.0,000.0,300514,,,A*59
$GPGGA,035738.00,4307.4647,N,14114.6577,E,1,00,0.0,43.0,M,0.0,M,,*62
$GPRMC,035738.00,A,4307.4647,N,14114.6577,E,6.0,000.0,300514,,,A*52
$GPGGA,035743.00,4307.4605,N,14114.6557,E,1,00,0.0,44.1,M,0.0,M,,*6C
$GPRMC,035743.00,A,4307.4605,N,14114.6557,E,6.0,000.0,300514,,,A*5A
$GPGGA,035748.00,4307.4569,N,14114.6538,E,1,00,0.0,42.4,M,0.0,M,,*64
$GPRMC,035748.00,A,4307.4569,N,14114.6538,E,5.0,000.0,300514,,,A*52
$GPGGA,035753.00,4307.4520,N,14114.6510,E,1,00,0.0,44.9,M,0.0,M,,*62
$GPRMC,035753.00,A,4307.4520,N,14114.6510,E,6.0,000.0,300514,,,A*5C
$GPGGA,035758.00,4307.4476,N,14114.6475,E,1,00,0.0,44.5,M,0.0,M,,*65
$GPRMC,035758.00,A,4307.4476,N,14114.6475,E,5.0,000.0,300514,,,A*54
$GPGGA,035803.00,4307.4446,N,14114.6432,E,1,00,0.0,49.1,M,0.0,M,,*6D
$GPRMC,035803.00,A,4307.4446,N,14114.6432,E,5.0,000.0,300514,,,A*55
$GPGGA,035808.00,4307.4376,N,14114.6331,E,1,00,0.0,66.0,M,0.0,M,,*6A
$GPRMC,035808.00,A,4307.4376,N,14114.6331,E,4.0,000.0,300514,,,A*5F
$GPGGA,035813.00,4307.4344,N,14114.6302,E,1,00,0.0,64.9,M,0.0,M,,*6A
$GPRMC,035813.00,A,4307.4344,N,14114.6302,E,4.0,000.0,300514,,,A*54
$GPGGA,035818.00,4307.4322,N,14114.6297,E,1,00,0.0,61.9,M,0.0,M,,*69
$GPRMC,035818.00,A,4307.4322,N,14114.6297,E,3.0,000.0,300514,,,A*55
$GPGGA,035823.00,4307.4293,N,14114.6273,E,1,00,0.0,51.5,M,0.0,M,,*6F
$GPRMC,035823.00,A,4307.4293,N,14114.6273,E,3.0,000.0,300514,,,A*5C
$GPGGA,035828.00,4307.4266,N,14114.6245,E,1,00,0.0,51.1,M,0.0,M,,*6F
$GPRMC,035828.00,A,4307.4266,N,14114.6245,E,3.0,000.0,300514,,,A*58
$GPGGA,035833.00,4307.4235,N,14114.6257,E,1,00,0.0,44.0,M,0.0,M,,*65
$GPRMC,035833.00,A,4307.4235,N,14114.6257,E,3.0,000.0,300514,,,A*57
$GPGGA,035838.00,4307.4190,N,14114.6237,E,1,00,0.0,42.7,M,0.0,M,,*65
$GPRMC,035838.00,A,4307.4190,N,14114.6237,E,3.0,000.0,300514,,,A*56
$GPGGA,035843.00,4307.4171,N,14114.6248,E,1,00,0.0,37.7,M,0.0,M,,*6C
$GPRMC,035843.00,A,4307.4171,N,14114.6248,E,0.0,000.0,300514,,,A*5E
$GPGGA,035848.00,4307.4132,N,14114.6270,E,1,00,0.0,38.1,M,0.0,M,,*62
$GPRMC,035848.00,A,4307.4132,N,14114.6270,E,4.0,000.0,300514,,,A*5D
$GPGGA,035853.00,4307.4106,N,14114.6243,E,1,00,0.0,35.9,M,0.0,M,,*6A
$GPRMC,035853.00,A,4307.4106,N,14114.6243,E,4.0,000.0,300514,,,A*50
$GPGGA,035858.00,4307.4074,N,14114.6203,E,1,00,0.0,36.4,M,0.0,M,,*6F
$GPRMC,035858.00,A,4307.4074,N,14114.6203,E,4.0,000.0,300514,,,A*5B
$GPGGA,035903.00,4307.4059,N,14114.6138,E,1,00,0.0,36.4,M,0.0,M,,*64
$GPRMC,035903.00,A,4307.4059,N,14114.6138,E,5.0,000.0,300514,,,A*51
$GPGGA,035908.00,4307.4002,N,14114.6115,E,1,00,0.0,38.8,M,0.0,M,,*6C
$GPRMC,035908.00,A,4307.4002,N,14114.6115,E,5.0,000.0,300514,,,A*5B
$GPGGA,035913.00,4307.3974,N,14114.6060,E,1,00,0.0,38.6,M,0.0,M,,*64
$GPRMC,035913.00,A,4307.3974,N,14114.6060,E,5.0,000.0,300514,,,A*5D
$GPGGA,035918.00,4307.3954,N,14114.6006,E,1,00,0.0,38.0,M,0.0,M,,*6B
$GPRMC,035918.00,A,4307.3954,N,14114.6006,E,4.0,000.0,300514,,,A*55
$GPGGA,035923.00,4307.3911,N,14114.5959,E,1,00,0.0,39.3,M,0.0,M,,*60
$GPRMC,035923.00,A,4307.3911,N,14114.5959,E,4.0,000.0,300514,,,A*5C
$GPGGA,035928.00,4307.3879,N,14114.5918,E,1,00,0.0,39.8,M,0.0,M,,*6A
$GPRMC,035928.00,A,4307.3879,N,14114.5918,E,5.0,000.0,300514,,,A*5C
$GPGGA,035933.00,4307.3825,N,14114.5933,E,1,00,0.0,40.3,M,0.0,M,,*65
$GPRMC,035933.00,A,4307.3825,N,14114.5933,E,5.0,000.0,300514,,,A*56
