$GPGGA,102139.552,4308.0643,N,14114.9876,E,0,00,0.0,77.9,M,0.0,M,,0000*51
$GPGGA,102140.552,4308.0643,N,14114.9876,E,0,00,0.0,77.9,M,0.0,M,,0000*5F
$GPGGA,102141.552,4308.0643,N,14114.9876,E,0,00,0.0,77.9,M,0.0,M,,0000*5E
$GPGGA,102142.552,4308.0643,N,14114.9876,E,0,00,0.0,77.9,M,0.0,M,,0000*5D
 
$GPGGA,102143.552,4308.0643,N,14114.9876,E,0,00,0.0,77.9,M,0.0,M,,0000*5C
 
$GPGGA,102144.552,4308.0643,N,14114.9876,E,0,00,0.0,77.9,M,0.0,M,,0000*5B
 
$GPGGA,102145.552,4308.0643,N,14114.9876,E,0,00,0.0,77.9,M,0.0,M,,0000*5A
 
$GPGGA,102146.552,4308.0643,N,14114.9876,E,0,00,0.0,77.9,M,0.0,M,,0000*59
 
$GPGGA,102147.552,4308.0643,N,14114.9876,E,0,00,0.0,77.9,M,0.0,M,,0000*58
 
$GPGGA,102148.552,4308.0643,N,14114.9876,E,0,00,0.0,77.9,M,0.0,M,,0000*57
 
$GPGGA,102149.552,4308.0643,N,14114.9876,E,0,00,0.0,77.9,M,0.0,M,,0000*56
 
$GPGGA,102150.552,4308.0643,N,14114.9876,E,0,00,0.0,77.9,M,0.0,M,,0000*5E
 
$GPGGA,102151.552,4308.0643,N,14114.9876,E,0,00,0.0,77.9,M,0.0,M,,0000*5F
 
$GPGGA,102152.552,4308.0643,N,14114.9876,E,0,00,0.0,77.9,M,0.0,M,,0000*5C
 
$GPGGA,102153.552,4308.0643,N,14114.9876,E,0,00,0.0,77.9,M,0.0,M,,0000*5D
 
$GPGGA,102154.552,4308.0718,N,14114.9862,E,1,03,19.8,48.4,M,29.5,M,,0000*5D
 
$GPGGA,102155.552,4308.0719,N,14114.9859,E,1,03,20.6,48.5,M,29.5,M,,0000*50
 
$GPGGA,102156.552,4308.0719,N,14114.9859,E,1,03,20.7,48.5,M,29.5,M,,0000*52
 
$GPGGA,102157.552,4308.0715,N,14114.9869,E,1,04,12.5,47.5,M,29.5,M,,0000*57
 
$GPGGA,102158.552,4308.0698,N,14114.9886,E,1,04,12.5,46.0,M,29.5,M,,0000*59
 
$GPGGA,102159.552,4308.0686,N,14114.9897,E,1,04,12.4,46.2,M,29.5,M,,0000*54
 
$GPGGA,102200.552,4308.0677,N,14114.9900,E,1,04,12.4,46.7,M,29.5,M,,0000*5F
 
$GPGGA,102201.552,4308.0671,N,14114.9905,E,1,04,12.4,46.7,M,29.5,M,,0000*5D
 
$GPGGA,102202.552,4308.0667,N,14114.9904,E,1,04,12.3,46.9,M,29.5,M,,0000*51
 
$GPGGA,102203.552,4308.0658,N,14114.9907,E,1,04,12.3,47.2,M,29.5,M,,0000*55
 
$GPGGA,102204.552,4308.0653,N,14114.9903,E,1,04,12.3,47.5,M,29.5,M,,0000*5A
 
$GPGGA,102205.552,4308.0646,N,14114.9897,E,1,04,12.2,47.6,M,29.5,M,,0000*51
 
$GPGGA,102206.552,4308.0640,N,14114.9891,E,1,04,12.2,48.3,M,29.5,M,,0000*58
 
$GPGGA,102207.552,4308.0636,N,14114.9902,E,1,04,12.2,48.0,M,29.5,M,,0000*50
 
$GPGGA,102208.552,4308.0634,N,14114.9898,E,1,04,12.2,48.5,M,29.5,M,,0000*5A
 
$GPGGA,102209.552,4308.0633,N,14114.9899,E,1,04,12.1,48.0,M,29.5,M,,0000*5B
 
$GPGGA,102210.552,4308.0629,N,14114.9899,E,1,04,12.1,48.5,M,29.5,M,,0000*5D
 
$GPGGA,102211.552,4308.0633,N,14114.9903,E,1,04,12.1,47.9,M,29.5,M,,0000*56
 
$GPGGA,102212.552,4308.0636,N,14114.9901,E,1,04,12.0,48.0,M,29.5,M,,0000*55
 
$GPGGA,102213.552,4308.0643,N,14114.9895,E,1,04,12.0,48.9,M,29.5,M,,0000*53
 
$GPGGA,102214.552,4308.0651,N,14114.9893,E,1,04,12.0,49.5,M,29.5,M,,0000*5C
 
$GPGGA,102215.552,4308.0657,N,14114.9890,E,1,04,11.9,49.0,M,29.5,M,,0000*57
 
$GPGGA,102216.552,4308.0665,N,14114.9878,E,1,04,11.9,50.0,M,29.5,M,,0000*5B
 
$GPGGA,102217.552,4308.0667,N,14114.9867,E,1,04,11.9,49.9,M,29.5,M,,0000*57
 
$GPGGA,102218.552,4308.0672,N,14114.9871,E,1,04,11.9,48.6,M,29.5,M,,0000*55
 
$GPGGA,102219.552,4308.0667,N,14114.9867,E,1,04,11.8,48.8,M,29.5,M,,0000*58
 
$GPGGA,102220.552,4308.0673,N,14114.9854,E,1,04,11.8,49.3,M,29.5,M,,0000*5D
 
$GPGGA,102221.552,4308.0673,N,14114.9855,E,1,04,11.8,48.2,M,29.5,M,,0000*5D
 
$GPGGA,102222.552,4308.0670,N,14114.9851,E,1,04,11.8,49.0,M,29.5,M,,0000*5A
 
$GPGGA,102223.552,4308.0669,N,14114.9846,E,1,04,11.7,49.1,M,29.5,M,,0000*5B
 
$GPGGA,102224.552,4308.0669,N,14114.9851,E,1,04,11.7,49.0,M,29.5,M,,0000*5B
 
$GPGGA,102225.552,4308.0674,N,14114.9838,E,1,04,11.7,49.4,M,29.5,M,,0000*5D
 
$GPGGA,102226.552,4308.0670,N,14114.9838,E,1,04,11.6,48.7,M,29.5,M,,0000*59
 
$GPGGA,102227.552,4308.0660,N,14114.9839,E,1,04,11.6,47.8,M,29.5,M,,0000*58
 
$GPGGA,102228.552,4308.0650,N,14114.9855,E,1,04,11.6,47.4,M,29.5,M,,0000*52
 
$GPGGA,102229.552,4308.0643,N,14114.9859,E,1,04,11.6,47.4,M,29.5,M,,0000*5D
 
$GPGGA,102230.552,4308.0648,N,14114.9856,E,1,04,11.5,48.1,M,29.5,M,,0000*58
 
$GPGGA,102231.552,4308.0646,N,14114.9854,E,1,04,11.5,48.0,M,29.5,M,,0000*54
 
$GPGGA,102232.552,4308.0644,N,14114.9862,E,1,04,11.5,47.0,M,29.5,M,,0000*5F
 
$GPGGA,102233.552,4308.0638,N,14114.9868,E,1,04,11.5,46.7,M,29.5,M,,0000*59
 
$GPGGA,102234.552,4308.0633,N,14114.9879,E,1,04,11.4,46.9,M,29.5,M,,0000*5A
 
$GPGGA,102235.552,4308.0629,N,14114.9882,E,1,04,11.4,47.1,M,29.5,M,,0000*5D
 
$GPGGA,102236.552,4308.0629,N,14114.9878,E,1,04,11.4,48.3,M,29.5,M,,0000*56
 
$GPGGA,102237.552,4308.0633,N,14114.9873,E,1,04,11.4,48.1,M,29.5,M,,0000*55
 
$GPGGA,102238.552,4308.0634,N,14114.9875,E,1,04,11.3,48.6,M,29.5,M,,0000*5B
 
$GPGGA,102239.552,4308.0621,N,14114.9886,E,1,04,11.3,47.6,M,29.5,M,,0000*5D
 
$GPGGA,102240.552,4308.0617,N,14114.9885,E,1,04,11.3,47.9,M,29.5,M,,0000*5A
 
$GPGGA,102241.552,4308.0616,N,14114.9880,E,1,04,11.3,48.6,M,29.5,M,,0000*5F
 
$GPGGA,102242.552,4308.0613,N,14114.9879,E,1,04,11.2,47.5,M,29.5,M,,0000*52
 
$GPGGA,102243.552,4308.0608,N,14114.9882,E,1,04,11.2,48.0,M,29.5,M,,0000*57
 
$GPGGA,102244.552,4308.0610,N,14114.9895,E,1,04,11.2,47.9,M,29.5,M,,0000*59
 
$GPGGA,102245.552,4308.0598,N,14114.9899,E,1,04,11.2,48.0,M,29.5,M,,0000*51
 
$GPGGA,102246.552,4308.0603,N,14114.9912,E,1,04,11.2,47.1,M,29.5,M,,0000*5F
 
$GPGGA,102247.552,4308.0606,N,14114.9911,E,1,04,11.1,47.9,M,29.5,M,,0000*53
 
$GPGGA,102248.552,4308.0603,N,14114.9905,E,1,04,11.1,47.9,M,29.5,M,,0000*5C
 
$GPGGA,102249.552,4308.0601,N,14114.9904,E,1,04,11.1,48.3,M,29.5,M,,0000*5B
 
$GPGGA,102250.552,4308.0601,N,14114.9902,E,1,04,11.1,48.4,M,29.5,M,,0000*52
 
$GPGGA,102251.552,4308.0602,N,14114.9900,E,1,04,11.0,48.2,M,29.5,M,,0000*55
 
$GPGGA,102252.552,4308.0596,N,14114.9901,E,1,04,11.0,48.2,M,29.5,M,,0000*59
 
$GPGGA,102253.552,4308.0597,N,14114.9894,E,1,04,11.0,47.9,M,29.5,M,,0000*50
 
$GPGGA,102254.552,4308.0598,N,14114.9890,E,1,04,11.0,48.6,M,29.5,M,,0000*5C
 
qGpØ,ÃáÃg1x90\E,1,04,11.0,48.9,M,29.5,M,,0000*51
 
$GPGGA,102256.552,4308.0610,N,14114.9890,E,1,00,11.0,48.9,M,29.5,M,,0000*56
 
$GPGGA,102257.552,4308.0610,N,14114.9890,E,1,00,11.0,48.9,M,29.5,M,,0000*57
 
$GPGGA,102258.552,4308.0610,N,14114.9890,E,1,00,11.0,48.9,M,29.5,M,,0000*58
 
$GPGGA,102259.552,4308.0610,N,14114.9890,E,0,00,11.0,48.9,M,29.5,M,,0000*58
 
$GPGGA,102300.552,4308.0610,N,14114.9890,E,0,00,11.0,48.9,M,29.5,M,,0000*55
 
$GPGGA,102301.552,4308.0610,N,14114.9890,E,0,00,11.0,48.9,M,29.5,M,,0000*54
 
$GPGGA,102302.552,4308.0610,N,14114.9890,E,0,00,11.0,48.9,M,29.5,M,,0000*57
 
$GPGGA,102303.552,4308.0610,N,14114.9890,E,0,00,11.0,48.9,M,29.5,M,,0000*56
 
$GPGGA,102304.552,4308.0610,N,14114.9890,E,0,00,11.0,48.9,M,29.5,M,,0000*51
 
$GPGGA,102305.552,4308.0610,N,14114.9890,E,0,00,11.0,48.9,M,29.5,M,,0000*50
 
$GPGGA,102306.552,4308.0610,N,14114.9890,E,0,00,11.0,48.9,M,29.5,M,,0000*53
 
$GPGGA,102307.552,4308.0610,N,14114.9890,E,0,00,11.0,48.9,M,29.5,M,,0000*52
 
$GPGGA,102308.552,4308.0610,N,14114.9890,E,0,00,11.0,48.9,M,29.5,M,,0000*5D
 
$GPGGA,102309.552,4308.0610,N,14114.9890,E,0,00,11.0,48.9,M,29.5,M,,0000*5C
 
$GPGGA,102310.552,4308.0610,N,14114.9890,E,0,00,11.0,48.9,M,29.5,M,,0000*54
 
$GPGGA,102311.552,4308.0610,N,14114.9890,E,0,00,11.0,48.9,M,29.5,M,,0000*55
 
$GPGGA,102312.552,4308.0610,N,14114.9890,E,0,00,11.0,48.9,M,29.5,M,,0000*56
 
$GPGGA,102313.552,4308.0610,N,14114.9890,E,0,00,11.0,48.9,M,29.5,M,,0000*57
 
$GPGGA,102314.552,4308.0610,N,14114.9890,E,0,00,11.0,48.9,M,29.5,M,,0000*50
 
$GPGGA,102315.552,4308.0610,N,14114.9890,E,0,00,11.0,48.9,M,29.5,M,,0000*51
 
$GPGGA,102316.552,4308.0610,N,14114.9890,E,0,00,11.0,48.9,M,29.5,M,,0000*52
 
$GPGGA,102317.552,4308.0610,N,14114.9890,E,0,00,11.0,48.9,M,29.5,M,,0000*53
 
$GPGGA,102318.552,4308.0610,N,14114.9890,E,0,00,11.0,48.9,M,29.5,M,,0000*5C
 
$GPGGA,102319.552,4308.0610,N,14114.9890,E,0,00,11.0,48.9,M,29.5,M,,0000*5D
 
$GPGGA,102320.552,4308.0610,N,14114.9890,E,0,00,11.0,48.9,M,29.5,M,,0000*57
 
$GPGGA,102321.552,4308.0610,N,14114.9890,E,0,00,11.0,48.9,M,29.5,M,,0000*56
 
$GPGGA,102322.552,4308.0610,N,14114.9890,E,0,00,11.0,48.9,M,29.5,M,,0000*55
 
$GPGGA,102323.552,4308.0610,N,14114.9890,E,0,00,11.0,48.9,M,29.5,M,,0000*54
 
$GPGGA,102324.552,4308.0610,N,14114.9890,E,0,00,11.0,48.9,M,29.5,M,,0000*53
 
$GPGGA,102325.552,4308.0610,N,14114.9890,E,0,00,11.0,48.9,M,29.5,M,,0000*52
 
$GPGGA,102326.552,4308.0610,N,14114.9890,E,0,00,11.0,48.9,M,29.5,M,,0000*51
 
$GPGGA,102327.552,4308.0610,N,14114.9890,E,0,00,11.0,48.9,M,29.5,M,,0000*50
 
$GPGGA,102328.552,4308.0610,N,14114.9890,E,0,00,11.0,48.9,M,29.5,M,,0000*5F
 
$GPGGA,102329.552,4308.0610,N,14114.9890,E,0,00,11.0,48.9,M,29.5,M,,0000*5E
 
$GPGGA,102330.552,4308.0610,N,14114.9890,E,0,00,11.0,48.9,M,29.5,M,,0000*56
 
$GPGGA,102331.552,4308.0610,N,14114.9890,E,0,00,11.0,48.9,M,29.5,M,,0000*57
 
$GPGGA,102332.552,4308.0610,N,14114.9890,E,0,00,11.0,48.9,M,29.5,M,,0000*54
 
$GPGGA,102333.552,4308.0610,N,14114.9890,E,0,00,11.0,48.9,M,29.5,M,,0000*55
 
$GPGGA,102334.552,4308.0610,N,14114.9890,E,0,00,11.0,48.9,M,29.5,M,,0000*52
 
$GPGGA,102335.552,4308.0610,N,14114.9890,E,0,00,11.0,48.9,M,29.5,M,,0000*53
 
$GPGGA,102336.552,4308.0610,N,14114.9890,E,0,00,11.0,48.9,M,29.5,M,,0000*50
 
$GPGGA,102337.552,4308.0610,N,14114.9890,E,0,00,11.0,48.9,M,29.5,M,,0000*51
 
$GPGGA,102338.552,4308.0610,N,14114.9890,E,0,00,11.0,48.9,M,29.5,M,,0000*5E
 
$GPGGA,102339.552,4308.0610,N,14114.9890,E,0,00,11.0,48.9,M,29.5,M,,0000*5F
 
$GPGGA,102340.552,4308.0610,N,14114.9890,E,0,00,11.0,48.9,M,29.5,M,,0000*51
 
$GPGGA,102341.552,4308.0610,N,14114.9890,E,0,00,11.0,48.9,M,29.5,M,,0000*50
 
$GPGGA,102342.552,4308.0610,N,14114.9890,E,0,00,11.0,48.9,M,29.5,M,,0000*53
 
$GPGGA,102343.552,4308.0610,N,14114.9890,E,0,00,11.0,48.9,M,29.5,M,,0000*52
 
$GPGGA,102344.552,4308.0610,N,14114.9890,E,0,00,11.0,48.9,M,29.5,M,,0000*55
 
$GPGGA,102345.552,4308.0610,N,14114.9890,E,0,00,11.0,48.9,M,29.5,M,,0000*54
 
$GPGGA,102346.552,4308.0610,N,14114.9890,E,0,00,11.0,48.9,M,29.5,M,,0000*57
 
$GPGGA,102347.552,4308.0610,N,14114.9890,E,0,00,11.0,48.9,M,29.5,M,,0000*56
 
$GPGGA,102348.552,4308.0610,N,14114.9890,E,0,00,11.0,48.9,M,29.5,M,,0000*59
 
$GPGGA,102349.552,4308.0610,N,14114.9890,E,0,00,11.0,48.9,M,29.5,M,,0000*58
 
$GPGGA,102350.552,4308.0610,N,14114.9890,E,0,00,11.0,48.9,M,29.5,M,,0000*50
 
$GPGGA,102351.552,4308.0610,N,14114.9890,E,0,00,11.0,48.9,M,29.5,M,,0000*51
 
$GPGGA,102352.552,4308.0610,N,14114.9890,E,0,00,11.0,48.9,M,29.5,M,,0000*52
 
$GPGGA,102353.552,4308.0610,N,14114.9890,E,0,00,11.0,48.9,M,29.5,M,,0000*53
 
$GPGGA,102354.552,4308.0610,N,14114.9890,E,0,00,11.0,48.9,M,29.5,M,,0000*54
 
$GPGGA,102355.552,4308.0610,N,14114.9890,E,0,00,11.0,48.9,M,29.5,M,,0000*55
 
$GPGGA,102356.552,4308.0610,N,14114.9890,E,0,00,11.0,48.9,M,29.5,M,,0000*56
 
$GPGGA,102357.552,4308.0610,N,14114.9890,E,0,00,11.0,48.9,M,29.5,M,,0000*57
 
$GPGGA,102358.552,4308.0610,N,14114.9890,E,0,00,11.0,48.9,M,29.5,M,,0000*58
 
$GPGGA,102359.552,4308.0610,N,14114.9890,E,0,00,11.0,48.9,M,29.5,M,,0000*59
 
$GPGGA,102400.552,4308.0610,N,14114.9890,E,0,00,11.0,48.9,M,29.5,M,,0000*52
 
$GPGGA,102401.552,4308.0610,N,14114.9890,E,0,00,11.0,48.9,M,29.5,M,,0000*53
 
$GPGGA,102402.552,4308.0610,N,14114.9890,E,0,00,11.0,48.9,M,29.5,M,,0000*50
 
$GPGGA,102403.552,4308.0610,N,14114.9890,E,0,00,11.0,48.9,M,29.5,M,,0000*51
 
$GPGGA,102404.552,4308.0610,N,14114.9890,E,0,00,11.0,48.9,M,29.5,M,,0000*56
 
$GPGGA,102405.552,4308.0610,N,14114.9890,E,0,00,11.0,48.9,M,29.5,M,,0000*57
 
$GPGGA,102406.552,4308.0610,N,14114.9890,E,0,00,11.0,48.9,M,29.5,M,,0000*54
 
$GPGGA,102407.552,4308.0610,N,14114.9890,E,0,00,11.0,48.9,M,29.5,M,,0000*55
 
$GPGGA,102408.552,4308.0610,N,14114.9890,E,0,00,11.0,48.9,M,29.5,M,,0000*5A
 
$GPGGA,102409.552,4308.0610,N,14114.9890,E,0,00,11.0,48.9,M,29.5,M,,0000*5B
 
$GPGGA,102410.552,4308.0610,N,14114.9890,E,0,00,11.0,48.9,M,29.5,M,,0000*53
 
$GPGGA,102411.552,4308.0610,N,14114.9890,E,0,00,11.0,48.9,M,29.5,M,,0000*52
 
$GPGGA,102412.552,4308.0610,N,14114.9890,E,0,00,11.0,48.9,M,29.5,M,,0000*51
 
$GPGGA,102413.552,4308.0610,N,14114.9890,E,0,00,11.0,48.9,M,29.5,M,,0000*50
 
$GPGGA,102414.552,4308.0610,N,14114.9890,E,0,00,11.0,48.9,M,29.5,M,,0000*57
 
$GPGGA,102415.552,4308.0610,N,14114.9890,E,0,00,11.0,48.9,M,29.5,M,,0000*56
 
$GPGGA,102416.552,4308.0610,N,14114.9890,E,0,00,11.0,48.9,M,29.5,M,,0000*55
 
$GPGGA,102417.552,4308.0610,N,14114.9890,E,0,00,11.0,48.9,M,29.5,M,,0000*54
 
$GPGGA,102418.552,4308.0610,N,14114.9890,E,0,00,11.0,48.9,M,29.5,M,,0000*5B
 
$GPGGA,102419.552,4308.0610,N,14114.9890,E,0,00,11.0,48.9,M,29.5,M,,0000*5A
 
$GPGGA,102420.552,4308.0610,N,14114.9890,E,0,00,11.0,48.9,M,29.5,M,,0000*50
 
$GPGGA,102421.552,4308.0610,N,14114.9890,E,0,00,11.0,48.9,M,29.5,M,,0000*51
 
$GPGGA,102422.552,4308.0610,N,14114.9890,E,0,00,11.0,48.9,M,29.5,M,,0000*52
 
$GPGGA,102423.552,4308.0610,N,14114.9890,E,0,00,11.0,48.9,M,29.5,M,,0000*53
 
$GPGGA,102424.552,4308.0610,N,14114.9890,E,0,00,11.0,48.9,M,29.5,M,,0000*54
 
$GPGGA,102425.552,4308.0610,N,14114.9890,E,0,00,11.0,48.9,M,29.5,M,,0000*55
 
$GPGGA,102426.552,4308.0610,N,14114.9890,E,0,00,11.0,48.9,M,29.5,M,,0000*56
 
$GPGGA,102427.552,4308.0610,N,14114.9890,E,0,00,11.0,48.9,M,29.5,M,,0000*57
 
$GPGGA,102428.552,4308.0610,N,14114.9890,E,0,00,11.0,48.9,M,29.5,M,,0000*58
 
$GPGGA,102429.552,4308.0610,N,14114.9890,E,0,00,11.0,48.9,M,29.5,M,,0000*59
 
$GPGGA,102430.552,4308.0610,N,14114.9890,E,0,00,11.0,48.9,M,29.5,M,,0000*51
 
$GPGGA,102431.552,4308.0610,N,14114.9890,E,0,00,11.0,48.9,M,29.5,M,,0000*50
 
$GPGGA,102432.552,4308.0610,N,14114.9890,E,0,00,11.0,48.9,M,29.5,M,,0000*53
 
$GPGGA,102433.552,4308.0610,N,14114.9890,E,0,00,11.0,48.9,M,29.5,M,,0000*52
 
$GPGGA,102434.552,4308.0610,N,14114.9890,E,0,00,11.0,48.9,M,29.5,M,,0000*55
 
$GPGGA,102435.552,4308.0610,N,14114.9890,E,0,00,11.0,48.9,M,29.5,M,,0000*54
 
$GPGGA,102436.552,4308.0610,N,14114.9890,E,0,00,11.0,48.9,M,29.5,M,,0000*57
 
$GPGGA,102437.552,4308.0610,N,14114.9890,E,0,00,11.0,48.9,M,29.5,M,,0000*56
 
$GPGGA,102438.552,4308.0610,N,14114.9890,E,0,00,11.0,48.9,M,29.5,M,,0000*59
 
$GPGGA,102439.552,4308.0718,N,14114.9733,E,1,04,9.3,48.5,M,29.5,M,,0000*64
 
$GPGGA,102440.552,4308.0718,N,14114.9731,E,1,04,9.3,49.6,M,29.5,M,,0000*6A
 
$GPGGA,102441.552,4308.0720,N,14114.9731,E,1,04,9.3,50.6,M,29.5,M,,0000*68
 
$GPGGA,102442.552,4308.0719,N,14114.9734,E,1,04,9.3,50.2,M,29.5,M,,0000*60
 
$GPGGA,102443.552,4308.0726,N,14114.9727,E,1,04,9.3,48.2,M,29.5,M,,0000*66
 
$GPGGA,102444.552,4308.0724,N,14114.9731,E,1,04,9.3,48.0,M,29.5,M,,0000*66
 
$GPGGA,102445.552,4308.0727,N,14114.9739,E,1,04,9.3,48.0,M,29.5,M,,0000*6C
 
$GPGGA,102446.552,4308.0740,N,14114.9750,E,1,04,9.3,46.0,M,29.5,M,,0000*6F
 
$GPGGA,102447.552,4308.0739,N,14114.9755,E,1,04,9.3,48.1,M,29.5,M,,0000*6A
 
$GPGGA,102448.552,4308.0741,N,14114.9773,E,1,04,9.3,47.8,M,29.5,M,,0000*68
 
$GPGGA,102449.552,4308.0742,N,14114.9791,E,1,04,9.2,47.6,M,29.5,M,,0000*69
 
$GPGGA,102450.552,4308.0743,N,14114.9802,E,1,04,9.2,47.4,M,29.5,M,,0000*67
 
$GPGGA,102451.552,4308.0743,N,14114.9805,E,1,04,9.2,47.4,M,29.5,M,,0000*61
 
$GPGGA,102452.552,4308.0744,N,14114.9805,E,1,04,9.2,47.4,M,29.5,M,,0000*65
 
$GPGGA,102453.552,4308.0744,N,14114.9805,E,1,04,9.2,47.5,M,29.5,M,,0000*65
 
$GPGGA,102454.552,4308.0743,N,14114.9805,E,1,04,9.2,47.5,M,29.5,M,,0000*65
 
$GPGGA,102455.552,4308.0744,N,14114.9804,E,1,04,9.2,47.5,M,29.5,M,,0000*62
 
$GPGGA,102456.552,4308.0744,N,14114.9805,E,1,04,9.2,47.5,M,29.5,M,,0000*60
 
$GPGGA,102457.552,4308.0744,N,14114.9804,E,1,04,9.2,47.5,M,29.5,M,,0000*60
 
$GPGGA,102458.552,4308.0744,N,14114.9803,E,1,04,9.1,47.5,M,29.5,M,,0000*6B
 
$GPGGA,102459.552,4308.0744,N,14114.9803,E,1,04,9.1,47.5,M,29.5,M,,0000*6A
 
$GPGGA,102500.552,4308.0744,N,14114.9803,E,1,04,9.1,47.5,M,29.5,M,,0000*67
 
$GPGGA,102501.552,4308.0744,N,14114.9803,E,1,04,9.1,47.5,M,29.5,M,,0000*66
 
$GPGGA,102502.552,4308.0745,N,14114.9802,E,1,04,9.1,47.6,M,29.5,M,,0000*66
 
$GPGGA,102503.552,4308.0748,N,14114.9801,E,1,04,9.1,47.5,M,29.5,M,,0000*6A
 
$GPGGA,102504.552,4308.0749,N,14114.9800,E,1,04,9.1,47.6,M,29.5,M,,0000*6E
 
$GPGGA,102505.552,4308.0749,N,14114.9800,E,1,04,9.1,47.6,M,29.5,M,,0000*6F
 
$GPGGA,102506.552,4308.0749,N,14114.9801,E,1,04,9.1,47.7,M,29.5,M,,0000*6C
 
$GPGGA,102507.552,4308.0750,N,14114.9801,E,1,04,9.1,47.6,M,29.5,M,,0000*64
 
$GPGGA,102508.552,4308.0751,N,14114.9801,E,1,04,9.1,47.5,M,29.5,M,,0000*69
 
$GPGGA,102509.552,4308.0751,N,14114.9800,E,1,04,9.0,47.6,M,29.5,M,,0000*6B
 
$GPGGA,102510.552,4308.0752,N,14114.9800,E,1,04,9.0,47.7,M,29.5,M,,0000*61
 
$GPGGA,102511.552,4308.0754,N,14114.9800,E,1,04,9.0,48.0,M,29.5,M,,0000*6E
 
$GPGGA,102512.552,4308.0754,N,14114.9800,E,1,04,9.0,47.9,M,29.5,M,,0000*6B
 
$GPGGA,102513.552,4308.0755,N,14114.9800,E,1,04,9.0,48.0,M,29.5,M,,0000*6D
 
$GPGGA,102514.552,4308.0755,N,14114.9800,E,1,04,9.0,47.9,M,29.5,M,,0000*6C
 
$GPGGA,102515.552,4308.0756,N,14114.9800,E,1,04,9.0,47.8,M,29.5,M,,0000*6F
 
$GPGGA,102516.552,4308.0756,N,14114.9800,E,1,04,9.0,48.0,M,29.5,M,,0000*6B
 
$GPGGA,102517.552,4308.0756,N,14114.9799,E,1,04,9.0,48.0,M,29.5,M,,0000*65
 
$GPGGA,102518.552,4308.0756,N,14114.9798,E,1,04,9.0,48.0,M,29.5,M,,0000*6B
 
$GPGGA,102519.552,4308.0756,N,14114.9798,E,1,04,8.9,48.0,M,29.5,M,,0000*62
 
$GPGGA,102520.552,4308.0757,N,14114.9798,E,1,04,8.9,48.0,M,29.5,M,,0000*69
 
$GPGGA,102521.552,4308.0758,N,14114.9797,E,1,04,8.9,48.1,M,29.5,M,,0000*69
 
$GPGGA,102522.552,4308.0758,N,14114.9797,E,1,04,8.9,48.1,M,29.5,M,,0000*6A
 
$GPGGA,102523.552,4308.0759,N,14114.9797,E,1,04,8.9,47.9,M,29.5,M,,0000*6D
 
$GPGGA,102524.552,4308.0761,N,14114.9798,E,1,04,8.9,48.0,M,29.5,M,,0000*68
 
$GPGGA,102525.552,4308.0761,N,14114.9798,E,1,04,8.9,48.1,M,29.5,M,,0000*68
 
$GPGGA,102526.552,4308.0760,N,14114.9798,E,1,04,8.9,48.2,M,29.5,M,,0000*69
 
$GPGGA,102527.552,4308.0761,N,14114.9797,E,1,03,2.2,47.8,M,29.5,M,,0000*65
 
$GPGGA,102528.552,4308.0762,N,14114.9797,E,1,04,8.9,48.0,M,29.5,M,,0000*68
 
$GPGGA,102529.552,4308.0762,N,14114.9794,E,1,04,8.9,48.1,M,29.5,M,,0000*6B
 
$GPGGA,102530.552,4308.0763,N,14114.9794,E,1,04,8.9,48.2,M,29.5,M,,0000*61
 
$GPGGA,102531.552,4308.0763,N,14114.9794,E,1,04,8.8,48.2,M,29.5,M,,0000*61
 
$GPGGA,102532.552,4308.0763,N,14114.9793,E,1,04,8.8,48.2,M,29.5,M,,0000*65
 
$GPGGA,102533.552,4308.0763,N,14114.9792,E,1,04,8.8,48.2,M,29.5,M,,0000*65
 
$GPGGA,102534.552,4308.0764,N,14114.9790,E,1,04,8.8,48.3,M,29.5,M,,0000*66
 
$GPGGA,102535.552,4308.0765,N,14114.9790,E,1,04,8.8,48.3,M,29.5,M,,0000*66
 
$GPGGA,102536.552,4308.0765,N,14114.9790,E,1,04,8.8,48.4,M,29.5,M,,0000*62
 
$GPGGA,102537.552,4308.0766,N,14114.9789,E,1,04,8.8,48.4,M,29.5,M,,0000*68
 
$GPGGA,102538.552,4308.0766,N,14114.9788,E,1,04,8.8,48.5,M,29.5,M,,0000*67
 
$GPGGA,102539.552,4308.0767,N,14114.9787,E,1,04,8.8,48.5,M,29.5,M,,0000*68
 
$GPGGA,102540.552,4308.0768,N,14114.9788,E,1,04,8.8,48.5,M,29.5,M,,0000*66
 
$GPGGA,102541.552,4308.0770,N,14114.9787,E,1,04,8.8,48.5,M,29.5,M,,0000*61
 
$GPGGA,102542.552,4308.0770,N,14114.9788,E,1,04,8.8,48.5,M,29.5,M,,0000*6D
 
$GPGGA,102543.552,4308.0771,N,14114.9790,E,1,04,8.8,48.6,M,29.5,M,,0000*67
 
$GPGGA,102544.552,4308.0771,N,14114.9790,E,1,04,8.7,48.6,M,29.5,M,,0000*6F
 
$GPGGA,102545.552,4308.0772,N,14114.9790,E,1,04,8.7,48.6,M,29.5,M,,0000*6D
 
$GPGGA,102546.552,4308.0773,N,14114.9791,E,1,04,8.7,48.6,M,29.5,M,,0000*6E
 
$GPGGA,102547.552,4308.0773,N,14114.9790,E,1,04,8.7,48.6,M,29.5,M,,0000*6E
 
$GPGGA,102548.552,4308.0773,N,14114.9790,E,1,04,8.7,48.6,M,29.5,M,,0000*61
 
$GPGGA,102549.552,4308.0773,N,14114.9789,E,1,04,8.7,48.7,M,29.5,M,,0000*69
 
$GPGGA,102550.552,4308.0773,N,14114.9789,E,1,04,8.7,48.7,M,29.5,M,,0000*61
 
$GPGGA,102551.552,4308.0774,N,14114.9789,E,1,04,8.7,48.7,M,29.5,M,,0000*67
 
$GPGGA,102552.552,4308.0774,N,14114.9789,E,1,04,8.7,48.5,M,29.5,M,,0000*66
 
$GPGGA,102553.552,4308.0774,N,14114.9787,E,1,04,8.7,48.5,M,29.5,M,,0000*69
 
$GPGGA,102554.552,4308.0775,N,14114.9787,E,1,04,8.7,48.5,M,29.5,M,,0000*6F
 
$GPGGA,102555.552,4308.0775,N,14114.9786,E,1,04,8.7,48.6,M,29.5,M,,0000*6C
 
$GPGGA,102556.552,4308.0775,N,14114.9786,E,1,04,8.7,48.6,M,29.5,M,,0000*6F
 
$GPGGA,102557.552,4308.0775,N,14114.9785,E,1,04,8.6,48.6,M,29.5,M,,0000*6C
 
$GPGGA,102558.552,4308.0776,N,14114.9786,E,1,04,8.6,48.6,M,29.5,M,,0000*63
 
$GPGGA,102559.552,4308.0776,N,14114.9785,E,1,04,8.6,48.6,M,29.5,M,,0000*61
 
$GPGGA,102600.552,4308.0775,N,14114.9784,E,1,04,8.6,48.6,M,29.5,M,,0000*6C
 
$GPGGA,102601.552,4308.0774,N,14114.9785,E,1,04,8.6,48.6,M,29.5,M,,0000*6D
 
$GPGGA,102602.552,4308.0775,N,14114.9783,E,1,04,8.6,48.6,M,29.5,M,,0000*69
 
$GPGGA,102603.552,4308.0775,N,14114.9782,E,1,04,8.6,48.7,M,29.5,M,,0000*68
 
$GPGGA,102604.552,4308.0775,N,14114.9781,E,1,04,8.6,48.7,M,29.5,M,,0000*6C
 
$GPGGA,102605.552,4308.0776,N,14114.9780,E,1,04,8.6,48.7,M,29.5,M,,0000*6F
 
$GPGGA,102606.552,4308.0776,N,14114.9780,E,1,04,8.6,48.8,M,29.5,M,,0000*63
 
$GPGGA,102607.552,4308.0776,N,14114.9780,E,1,04,8.6,48.8,M,29.5,M,,0000*62
